
[
    {
      "city": "Barcelona",
      "id" : 0,
      "coordinates": {"latitude": "41.3851", "longitude": "2.1734"},
      "date": ["2024-05-15T13:14:17.176Z", "2024-05-18T13:14:17.176Z"],
      "trip" : {
      "trip_planner": {
        "Day 1": [
          {
            "coordinates": {
              "latitude": "41.4036",
              "longitude": "2.1744"
            },
            "description": "The Sagrada Familia is a breathtaking basilica designed by the renowned architect Antoni Gaud\u00ed. It is a UNESCO World Heritage site and one of the most iconic landmarks in Barcelona. The intricate facades and the stunning interior make it a must-visit attraction. Don't miss the opportunity to admire the panoramic city views from the towers.",
            "name": "Sagrada Familia"
          },
          {
            "coordinates": {
              "latitude": "41.4146",
              "longitude": "2.1528"
            },
            "description": "This enchanting park is another masterpiece designed by Antoni Gaud\u00ed. The park offers a wonderful blend of nature and architecture, featuring colorful mosaic-decorated buildings, serpentine benches, and whimsical structures. Enjoy a leisurely stroll through the park and be captivated by the stunning views of Barcelona.",
            "name": "Park G\u00fcell"
          },
          {
            "coordinates": {
              "latitude": "41.3800",
              "longitude": "2.1734"
            },
            "description": "Take a stroll along La Rambla, a lively tree-lined street in the heart of Barcelona. This bustling boulevard is lined with street performers, caf\u00e9s, shops, and vibrant market stalls. Immerse yourself in the lively atmosphere, and don't forget to visit the famous La Boqueria market to savor local delicacies.",
            "name": "La Rambla"
          },
          {
            "coordinates": {
              "latitude": "41.3827",
              "longitude": "2.1769"
            },
            "description": "Explore the medieval streets of the Barri G\u00f2tic, Barcelona's historic Gothic Quarter. This charming neighborhood is filled with architectural treasures, quaint squares, and hidden gems. Wander through the narrow alleys to discover medieval buildings, cozy eateries, and unique boutiques.",
            "name": "Barri G\u00f2tic (Gothic Quarter)"
          }
        ],
        "Day 2": [
          {
            "coordinates": {
              "latitude": "41.3916",
              "longitude": "2.1634"
            },
            "description": "Casa Batll\u00f3 is a masterpiece of modernist architecture designed by Antoni Gaud\u00ed. The building's remarkable facade, with its wave-like shape and vibrant colors, is a sight to behold. Step inside to marvel at the extraordinary interiors, which showcase Gaud\u00ed's creative genius and attention to detail.",
            "name": "Casa Batll\u00f3"
          },
          {
            "coordinates": {
              "latitude": "41.3786",
              "longitude": "2.1899"
            },
            "description": "Relax and soak up the sun at Barceloneta Beach, one of the most popular urban beaches in Barcelona. With its golden sands, clear blue waters, and vibrant beachfront promenade, it's the perfect spot to unwind and enjoy a range of water sports and beachfront dining options.",
            "name": "Barceloneta Beach"
          },
          {
            "coordinates": {
              "latitude": "41.3809",
              "longitude": "2.1228"
            },
            "description": "Football fans shouldn't miss the chance to visit Camp Nou, the home stadium of FC Barcelona. Take a guided tour of the stadium to explore the impressive trophy room, the players' tunnel, and the pitch. Experience the passion and history of one of the most iconic football clubs in the world.",
            "name": "Camp Nou"
          },
          {
            "coordinates": {
              "latitude": "41.3649",
              "longitude": "2.1557"
            },
            "description": "Head to Montju\u00efc Hill for panoramic views of Barcelona and a wealth of cultural attractions. Explore the Montju\u00efc Castle, visit the Joan Mir\u00f3 Foundation, and stroll through the gardens of the Montju\u00efc Park. Don't miss the mesmerizing Magic Fountain light and music show in the evening.",
            "name": "Montju\u00efc Hill"
          }
        ],
        "Day 3": [
          {
            "coordinates": {
              "latitude": "41.3723",
              "longitude": "2.1485"
            },
            "description": "Immerse yourself in the charm of Poble Espanyol, an open-air architectural museum that showcases the diverse architecture, culture, and heritage of Spain. Explore the recreated Spanish village with its traditional houses, artisan workshops, and a wide range of cultural activities and events.",
            "name": "Poble Espanyol"
          },
          {
            "coordinates": {
              "latitude": "41.4214",
              "longitude": "2.1186"
            },
            "description": "For a fun-filled day, visit Tibidabo Amusement Park located on the summit of Tibidabo Mountain. Enjoy a mix of exhilarating rides, vintage attractions, and breathtaking views of Barcelona. The park's nostalgic charm and scenic setting make it a delightful experience for all ages.",
            "name": "Tibidabo Amusement Park"
          },
          {
            "coordinates": {
              "latitude": "41.3823",
              "longitude": "2.1754"
            },
            "description": "G\u00fcell Palace, another remarkable work of Antoni Gaud\u00ed, is a modernist mansion with a striking facade that blends sculptural elements and ornate details. Discover the opulent interiors adorned with beautiful stained glass, intricate woodwork, and captivating architectural features.",
            "name": "G\u00fcell Palace"
          },
          {
            "coordinates": {
              "latitude": "41.3797",
              "longitude": "2.1668"
            },
            "description": "Explore the vibrant neighborhood of El Raval, known for its diverse cultural scene, art galleries, trendy bars, and eclectic street art. Wander through its eclectic streets to discover hidden gems, impressive street murals, and a dynamic mix of contemporary and traditional influences.",
            "name": "El Raval"
          }
        ]
      }
    }
    },
    {
      "city": "New York",
      "id" : 1,
      "coordinates": {"latitude": "40.7128", "longitude": "-74.0060"},
      "date": ["2024-05-15T13:14:17.176Z", "2024-05-20T13:14:17.176Z"],
      "trip" : {
      "trip_planner": {
        "Day 1": [
          {
            "coordinates": {
              "latitude": "40.782865",
              "longitude": "-73.965355"
            },
            "description": "Central Park is an urban park in New York City located between the Upper West and Upper East Sides of Manhattan. It is the most visited urban park in the United States and one of the most filmed locations in the world. The park offers a variety of activities including walking, boating, ice-skating, and visiting the Central Park Zoo.",
            "name": "Central Park"
          },
          {
            "coordinates": {
              "latitude": "40.779437",
              "longitude": "-73.963244"
            },
            "description": "The Metropolitan Museum of Art, often referred to simply as the Met, is the largest art museum in the United States. It holds a vast collection of art and artifacts from ancient Egypt, classical antiquity, and numerous other civilizations. The museum's collection also includes an extensive collection of American decorative arts, costumes, and accessories.",
            "name": "The Metropolitan Museum of Art"
          },
          {
            "coordinates": {
              "latitude": "40.747980",
              "longitude": "-74.004820"
            },
            "description": "The High Line is a 1.45-mile-long elevated linear park, greenway and rail trail. It was created on a former New York Central Railroad spur on the west side of Manhattan. The High Line offers beautiful views of the city and a peaceful place to walk, relax, and enjoy public art installations.",
            "name": "The High Line"
          },
          {
            "coordinates": {
              "latitude": "40.7580",
              "longitude": "-73.9855"
            },
            "description": "Times Square is a major commercial and entertainment hub in the heart of New York City. It is characterized by its bright lights, Broadway theaters, and massive digital billboards. Visitors can experience the bustling atmosphere, enjoy street performances, and explore the nearby shops and restaurants.",
            "name": "Times Square"
          }
        ],
        "Day 2": [
          {
            "coordinates": {
              "latitude": "40.6892",
              "longitude": "-74.0445"
            },
            "description": "The Statue of Liberty is a symbol of freedom and democracy and is located on Liberty Island in New York Harbor. Visitors can take a ferry to the island and explore the pedestal and museum, as well as enjoy stunning views of the New York City skyline and the nearby Ellis Island.",
            "name": "Statue of Liberty"
          },
          {
            "coordinates": {
              "latitude": "40.7128",
              "longitude": "-74.0134"
            },
            "description": "One World Trade Center, also known as the Freedom Tower, is the main building of the rebuilt World Trade Center complex in Lower Manhattan. Visitors can visit the One World Observatory for panoramic views of the city and learn about the history of the World Trade Center.",
            "name": "One World Trade Center"
          },
          {
            "coordinates": {
              "latitude": "40.706086",
              "longitude": "-73.996864"
            },
            "description": "The Brooklyn Bridge is a hybrid cable-stayed/suspension bridge in New York City. It connects the boroughs of Manhattan and Brooklyn, spanning the East River. Visitors can walk or bike across the bridge and enjoy stunning views of the city skyline and the waterfront.",
            "name": "Brooklyn Bridge"
          },
          {
            "coordinates": {
              "latitude": "40.6694",
              "longitude": "-73.9626"
            },
            "description": "The Brooklyn Botanic Garden is a 52-acre botanical garden in the borough of Brooklyn. It holds over 14,000 taxa of plants and has nearly a million visitors each year. Visitors can explore the diverse plant collections and enjoy events, classes, and exhibitions.",
            "name": "Brooklyn Botanic Garden"
          }
        ],
        "Day 3": [
          {
            "coordinates": {
              "latitude": "40.748817",
              "longitude": "-73.985428"
            },
            "description": "The Empire State Building is a 102-story Art Deco skyscraper in Midtown Manhattan. It has a roof height of 1,250 feet and stands a total of 1,454 feet including its antenna. Visitors can enjoy breathtaking views of the city from the observation decks on the 86th and 102nd floors.",
            "name": "Empire State Building"
          },
          {
            "coordinates": {
              "latitude": "40.7587",
              "longitude": "-73.9787"
            },
            "description": "Rockefeller Center is a large complex consisting of 19 commercial buildings covering 22 acres. It is a national historic landmark that attracts visitors with its famous ice-skating rink, Top of the Rock Observation Deck, and Radio City Music Hall.",
            "name": "Rockefeller Center"
          },
          {
            "coordinates": {
              "latitude": "40.7614",
              "longitude": "-73.9776"
            },
            "description": "The Museum of Modern Art (MoMA) is an art museum located in Midtown Manhattan. It has been important in developing and collecting modernist art, and is often identified as one of the largest and most influential museums of modern art in the world.",
            "name": "Museum of Modern Art"
          },
          {
            "coordinates": {
              "latitude": "40.7505",
              "longitude": "-73.9934"
            },
            "description": "Madison Square Garden, colloquially known as The Garden, is a multi-purpose indoor arena in the New York City borough of Manhattan. It is the home of the New York Knicks and New York Rangers. Visitors can catch a live sports game or concert at this iconic venue.",
            "name": "Madison Square Garden"
          }
        ],
        "Day 4": [
          {
            "coordinates": {
              "latitude": "40.574926",
              "longitude": "-73.983643"
            },
            "description": "Coney Island is a peninsular residential neighborhood, beach, and leisure/entertainment destination of Long Island on the Coney Island Channel. Visitors can enjoy the beach, amusement park rides, and the iconic boardwalk, as well as take in the vibrant and diverse atmosphere of this historic neighborhood.",
            "name": "Coney Island"
          },
          {
            "coordinates": {
              "latitude": "40.5742",
              "longitude": "-73.9754"
            },
            "description": "The New York Aquarium is the oldest continually operating aquarium in the United States, having been open since 1896. It is part of the Wildlife Conservation Society and is home to a wide range of marine animals. Visitors can explore exhibits featuring sea otters, sharks, and sea lions.",
            "name": "New York Aquarium"
          },
          {
            "coordinates": {
              "latitude": "40.6602",
              "longitude": "-73.9680"
            },
            "description": "Prospect Park is an urban park in Brooklyn, New York City. It is situated between the neighborhoods of Park Slope, Prospect Heights, Prospect Lefferts Gardens, Flatbush, and Windsor Terrace. The park offers various recreational activities including hiking, bird-watching, and picnicking.",
            "name": "Prospect Park"
          },
          {
            "coordinates": {
              "latitude": "40.6712",
              "longitude": "-73.9639"
            },
            "description": "The Brooklyn Museum is an art museum located in the New York City borough of Brooklyn. At 560,000 square feet, the museum is New York City's third largest in physical size and holds an art collection with roughly 1.5 million works.",
            "name": "Brooklyn Museum"
          }
        ],
        "Day 5": [
          {
            "coordinates": {
              "latitude": "40.7158",
              "longitude": "-73.9970"
            },
            "description": "Chinatown is a neighborhood in Manhattan, New York City, located in the southern portion of the borough. It is known for its distinctive culture, food, and shops. Visitors can explore the bustling streets, sample authentic Chinese cuisine, and browse through numerous markets and stores.",
            "name": "Chinatown"
          },
          {
            "coordinates": {
              "latitude": "40.7191",
              "longitude": "-73.9973"
            },
            "description": "Little Italy is a neighborhood in Lower Manhattan, New York City, once known for its large population of Italian immigrants. Today, the area is well known for its Italian restaurants, cafes, and annual Feast of San Gennaro. Visitors can enjoy delicious Italian food and experience the vibrant atmosphere.",
            "name": "Little Italy"
          },
          {
            "coordinates": {
              "latitude": "40.8648",
              "longitude": "-73.9312"
            },
            "description": "The Cloisters is a museum in Upper Manhattan specializing in European medieval architecture, sculpture, and decorative arts. The museum's building and its distinctive collection are located in Fort Tryon Park, a large public park overlooking the Hudson River.",
            "name": "The Cloisters"
          },
          {
            "coordinates": {
              "latitude": "40.7590",
              "longitude": "-73.9845"
            },
            "description": "Broadway is the world-renowned theater district in New York City. Visitors can enjoy a wide array of theater performances, including musicals, plays, and comedy shows. The district is also home to many historic theaters and landmarks.",
            "name": "Broadway Shows"
          }
        ]
      }
    }
    },
    {
      "city": "London",
      "id" : 2,
      "coordinates": {"latitude": "51.5074", "longitude": "-0.1278"},
      "date": ["2024-05-15T13:14:17.176Z", "2024-05-19T13:14:17.176Z"],
      "trip" : {
      "trip_planner": {
        "Day 1": [
          {
            "coordinates": {
              "latitude": "51.5194",
              "longitude": "-0.1270"
            },
            "description": "The British Museum is a world-renowned museum that houses a vast collection of art and artifacts from ancient and living cultures. Spend your day exploring the museum's diverse exhibits, including the Rosetta Stone, Egyptian mummies, and Greek sculptures. Don't miss the stunning Great Court and the historic Reading Room.",
            "name": "The British Museum"
          },
          {
            "coordinates": {
              "latitude": "51.5081",
              "longitude": "-0.0759"
            },
            "description": "Explore the Tower of London, a historic castle and former royal residence. Learn about the tower's rich history, including its use as a prison, royal mint, and treasury. Be sure to visit the Crown Jewels exhibit and take a guided tour led by the Yeoman Warders, also known as Beefeaters.",
            "name": "Tower of London"
          },
          {
            "coordinates": {
              "latitude": "51.5014",
              "longitude": "-0.1419"
            },
            "description": "Witness the Changing of the Guard ceremony at Buckingham Palace, the official residence of the British monarch. Admire the palace's impressive architecture and expansive gardens, and learn about its role in royal ceremonies and state functions.",
            "name": "Buckingham Palace"
          },
          {
            "coordinates": {
              "latitude": "51.4994",
              "longitude": "-0.1270"
            },
            "description": "Visit Westminster Abbey, a UNESCO World Heritage site and iconic place of worship. Marvel at the abbey's stunning Gothic architecture and explore the burial place of monarchs, poets, and scientists. Attend a choral evensong for a truly immersive experience.",
            "name": "Westminster Abbey"
          }
        ],
        "Day 2": [
          {
            "coordinates": {
              "latitude": "51.5045",
              "longitude": "-0.0865"
            },
            "description": "Ascend to the viewing platforms of The Shard, London's tallest building, for panoramic views of the city's skyline. Enjoy a unique perspective of landmarks such as Tower Bridge, the River Thames, and St. Paul's Cathedral while savoring a drink at the sky-high bar.",
            "name": "The Shard"
          },
          {
            "coordinates": {
              "latitude": "51.5138",
              "longitude": "-0.0984"
            },
            "description": "Discover the grandeur of St. Paul's Cathedral, an architectural masterpiece designed by Sir Christopher Wren. Climb to the top of the dome for breathtaking views, explore the intricate mosaics and sculptures, and attend a concert or service for a moment of reflection.",
            "name": "St. Paul's Cathedral"
          },
          {
            "coordinates": {
              "latitude": "51.5076",
              "longitude": "-0.0994"
            },
            "description": "Immerse yourself in contemporary art at the Tate Modern, housed in a transformed power station along the Thames. Explore thought-provoking exhibitions, take part in interactive workshops, and enjoy scenic riverfront dining options within the museum.",
            "name": "Tate Modern"
          },
          {
            "coordinates": {
              "latitude": "51.5118",
              "longitude": "-0.1226"
            },
            "description": "Experience the vibrant atmosphere of Covent Garden, a historic market surrounded by street performers, upscale boutiques, and charming cafes. Enjoy a diverse range of dining options, browse for unique souvenirs, and catch a live performance at the Royal Opera House.",
            "name": "Covent Garden"
          }
        ],
        "Day 3": [
          {
            "coordinates": {
              "latitude": "51.4966",
              "longitude": "-0.1722"
            },
            "description": "Delve into the world of design and decorative arts at the Victoria and Albert Museum, home to a treasure trove of exhibits spanning fashion, furniture, and photography. Discover rare artifacts and immerse yourself in temporary displays that showcase global creativity.",
            "name": "Victoria and Albert Museum"
          },
          {
            "coordinates": {
              "latitude": "51.5051",
              "longitude": "-0.1877"
            },
            "description": "Step into the elegant surroundings of Kensington Palace, a royal residence with a rich history. Explore the lavish State Apartments, stroll through the lush gardens, and uncover stories of past and present royal residents, including Queen Victoria and Princess Diana.",
            "name": "Kensington Palace"
          },
          {
            "coordinates": {
              "latitude": "51.5073",
              "longitude": "-0.1657"
            },
            "description": "Relax in the sprawling green spaces of Hyde Park, a beloved retreat in the heart of London. Take a leisurely boat ride on the Serpentine Lake, visit the Diana, Princess of Wales Memorial Fountain, or simply enjoy a picnic amidst picturesque landscapes.",
            "name": "Hyde Park"
          },
          {
            "coordinates": {
              "latitude": "51.4995",
              "longitude": "-0.1630"
            },
            "description": "Indulge in a luxurious shopping experience at Harrods, an iconic department store offering an array of upscale fashion, gourmet foods, and opulent homeware. Wander through the opulent halls, enjoy fine dining options, and explore the renowned Food Halls for culinary delights.",
            "name": "Harrods"
          }
        ],
        "Day 4": [
          {
            "coordinates": {
              "latitude": "51.5089",
              "longitude": "-0.1283"
            },
            "description": "Explore the masterpieces of European art at The National Gallery, home to an unparalleled collection of paintings from the 13th to 19th centuries. Admire works by renowned artists such as Leonardo da Vinci, Vincent van Gogh, and J.M.W. Turner in this cultural haven.",
            "name": "The National Gallery"
          },
          {
            "coordinates": {
              "latitude": "51.5133",
              "longitude": "-0.1222"
            },
            "description": "Immerse yourself in the world of ballet and opera at the Royal Opera House, a historic venue renowned for its world-class performances. Take a guided tour of the opulent theater, attend a matinee or evening show, and witness the magic of live music and dance.",
            "name": "Royal Opera House"
          },
          {
            "coordinates": {
              "latitude": "51.5416",
              "longitude": "-0.1455"
            },
            "description": "Discover the eclectic energy of Camden Market, a vibrant hub for alternative fashion, art, and international street food. Wander through the maze of stalls, enjoy live music performances, and sample an array of cuisines from around the world.",
            "name": "Camden Market"
          },
          {
            "coordinates": {
              "latitude": "51.5081",
              "longitude": "-0.0971"
            },
            "description": "Step into the Elizabethan era at Shakespeare's Globe, a faithful reconstruction of the playwright's original theater. Experience a thrilling Shakespearean production in-the-round, take a guided tour of the iconic venue, and embrace the timeless art of storytelling.",
            "name": "Shakespeare's Globe"
          }
        ]
      }
    }
    },
    {
      "city": "Tokyo",
      "id" : 3,
      "coordinates": {"latitude": "35.6895", "longitude": "139.6917"},
      "date": ["2024-05-15T13:14:17.176Z", "2024-05-18T13:14:17.176Z"],
      "trip" : {
      "trip_planner": {
        "Day 1": [
          {
            "coordinates": {
              "latitude": "35.658580",
              "longitude": "139.745433"
            },
            "description": "Tokyo Tower is a communications and observation tower located in the Shiba-koen district of Minato, Tokyo. Standing 333 meters tall, it is the second-tallest structure in Japan.",
            "name": "Tokyo Tower"
          },
          {
            "coordinates": {
              "latitude": "35.714581",
              "longitude": "139.796618"
            },
            "description": "Senso-ji Temple is Tokyo's oldest temple, dating back to 628. It features a stunning main hall, iconic Thunder Gate, and bustling Nakamise shopping street.",
            "name": "Senso-ji Temple"
          },
          {
            "coordinates": {
              "latitude": "35.685176",
              "longitude": "139.710052"
            },
            "description": "Shinjuku Gyoen is a large park with an eminent garden in Shinjuku and Shibuya, Tokyo, Japan. It was originally a residence of the Nait\u014d family in the Edo period.",
            "name": "Shinjuku Gyoen National Garden"
          },
          {
            "coordinates": {
              "latitude": "35.676397",
              "longitude": "139.699315"
            },
            "description": "Meiji Shrine, located in Shibuya, Tokyo, is a Shinto shrine that is dedicated to the deified spirits of Emperor Meiji and his wife, Empress Shoken.",
            "name": "Meiji Shrine"
          }
        ],
        "Day 2": [
          {
            "coordinates": {
              "latitude": "35.632896",
              "longitude": "139.880394"
            },
            "description": "Tokyo Disneyland is a world-class theme park offering magical attractions, entertainment, and wondrous parades suitable for visitors of all ages.",
            "name": "Tokyo Disneyland"
          },
          {
            "coordinates": {
              "latitude": "35.699638",
              "longitude": "139.771208"
            },
            "description": "Akihabara is a major shopping and cultural district in Tokyo known for its anime, manga, electronics, and gaming stores, as well as themed cafes.",
            "name": "Akihabara District"
          },
          {
            "coordinates": {
              "latitude": "35.619731",
              "longitude": "139.779550"
            },
            "description": "Odaiba is a popular entertainment and shopping district on a man-made island in Tokyo Bay. It offers various attractions, shopping malls, and waterfront parks.",
            "name": "Odaiba"
          },
          {
            "coordinates": {
              "latitude": "35.710063",
              "longitude": "139.810700"
            },
            "description": "Tokyo Skytree is a broadcasting, restaurant, and observation tower in Sumida, Tokyo. It is the tallest structure in Japan and the second tallest in the world.",
            "name": "Tokyo Skytree"
          }
        ],
        "Day 3": [
          {
            "coordinates": {
              "latitude": "35.665495",
              "longitude": "139.770848"
            },
            "description": "Tsukiji Fish Market is the world's largest fish market and a vibrant wholesale market with an array of seafood, fruits, and vegetables in central Tokyo.",
            "name": "Tsukiji Fish Market"
          },
          {
            "coordinates": {
              "latitude": "35.714128",
              "longitude": "139.774526"
            },
            "description": "Ueno Park is a spacious public park in the Ueno district of Taito, Tokyo, offering museums, a zoo, temples, ponds, and beautiful cherry blossoms in spring.",
            "name": "Ueno Park"
          },
          {
            "coordinates": {
              "latitude": "35.660399",
              "longitude": "139.729316"
            },
            "description": "Roppongi Hills is a modern urban center in Tokyo with skyscrapers, shopping, dining, art museums, a futuristic observatory, and a renowned Mori Art Museum.",
            "name": "Roppongi Hills"
          },
          {
            "coordinates": {
              "latitude": "35.694453",
              "longitude": "139.743276"
            },
            "description": "Yasukuni Shrine is a Shinto shrine in Chiyoda, Tokyo, honoring the spirits of the Japanese individuals who have died in service of the country.",
            "name": "Yasukuni Shrine"
          }
        ]
      }
    }
    },
    {
      "city": "Sydney",
      "id" : 4,
      "coordinates": {"latitude": "-33.8688", "longitude": "151.2093"},
      "date": ["2024-05-15T13:14:17.176Z", "2024-05-19T13:14:17.176Z"],
      "trip" : {
      "trip_planner": {
        "Day 1": [
          {
            "coordinates": {
              "latitude": "-33.8568",
              "longitude": "151.2153"
            },
            "description": "The Sydney Opera House is one of the most iconic and recognizable buildings in the world. It is a UNESCO World Heritage site and offers guided tours showcasing its architectural beauty and rich history. Visitors can also catch a performance at one of its renowned venues, enjoying music, dance, or theater in a breathtaking setting.",
            "name": "Sydney Opera House"
          },
          {
            "coordinates": {
              "latitude": "-33.8523",
              "longitude": "151.2108"
            },
            "description": "The Sydney Harbour Bridge offers a thrilling climb experience, allowing participants to scale the bridge's arches and enjoy panoramic views of the city and harbor. For those seeking a less adventurous experience, simply walking or cycling across the bridge provides stunning vistas and photo opportunities.",
            "name": "Sydney Harbour Bridge"
          },
          {
            "coordinates": {
              "latitude": "-33.8599",
              "longitude": "151.2090"
            },
            "description": "The Rocks is a historic area with cobblestone streets, art galleries, and charming cafes. Visitors can explore the heritage architecture, shop for unique souvenirs, or delve into the area's intriguing past through guided walking tours. The bustling market stalls and lively pubs add to the area's vibrant atmosphere.",
            "name": "The Rocks"
          },
          {
            "coordinates": {
              "latitude": "-33.8646",
              "longitude": "151.2150"
            },
            "description": "The Royal Botanic Garden is a tranquil oasis in the heart of Sydney, offering lush greenery, colorful floral displays, and serene walking paths. Visitors can enjoy picnics, birdwatching, or simply relax amidst the natural beauty. Guided tours and educational programs are available for those seeking a deeper understanding of the plant life within the garden.",
            "name": "Royal Botanic Garden"
          }
        ],
        "Day 2": [
          {
            "coordinates": {
              "latitude": "-33.8910",
              "longitude": "151.2767"
            },
            "description": "Bondi Beach is a world-famous stretch of golden sand and azure waters, attracting surfers, sunbathers, and beachcombers alike. Visitors can take a coastal walk, swim in the refreshing ocean, or simply unwind with a beachfront meal at one of the lively cafes. The vibrant atmosphere and stunning sunsets make Bondi Beach a must-visit destination.",
            "name": "Bondi Beach"
          },
          {
            "coordinates": {
              "latitude": "-33.8522",
              "longitude": "151.1986"
            },
            "description": "The Sydney Fish Market is the largest of its kind in the Southern Hemisphere, offering an incredible array of freshly-caught seafood and gourmet delights. Visitors can sample sushi, oysters, and fish and chips, or participate in a seafood cooking class to learn new culinary skills. The market's bustling atmosphere and waterfront location create a memorable dining experience.",
            "name": "Sydney Fish Market"
          },
          {
            "coordinates": {
              "latitude": "-33.8688",
              "longitude": "151.2140"
            },
            "description": "The Art Gallery of New South Wales features an impressive collection of Australian and international art, spanning various periods and styles. Visitors can admire paintings, sculptures, and indigenous artworks, as well as join guided tours and art workshops. The gallery's scenic location and diverse exhibitions make it a cultural hub for art enthusiasts.",
            "name": "Art Gallery of New South Wales"
          },
          {
            "coordinates": {
              "latitude": "-33.8706",
              "longitude": "151.2108"
            },
            "description": "The Sydney Tower Eye offers panoramic views of the city and its surroundings from its observation deck, providing a bird's-eye perspective of Sydney's landmarks. Visitors can enjoy a 4D cinema experience, spot famous landmarks through high-powered binoculars, and even partake in a skywalk for an adrenaline-pumping adventure high above the streets.",
            "name": "Sydney Tower Eye"
          }
        ],
        "Day 3": [
          {
            "coordinates": {
              "latitude": "-33.8732",
              "longitude": "151.1993"
            },
            "description": "Darling Harbour is a vibrant waterfront precinct offering entertainment, dining, and leisure activities for all ages. Visitors can explore attractions such as the SEA LIFE Sydney Aquarium, WILD LIFE Sydney Zoo, and the Australian National Maritime Museum. Cruises, waterside dining, and fireworks displays add to the area's lively atmosphere.",
            "name": "Darling Harbour"
          },
          {
            "coordinates": {
              "latitude": "-33.8787",
              "longitude": "151.1991"
            },
            "description": "The Powerhouse Museum showcases an extensive collection of science, technology, design, and decorative arts, providing interactive exhibits and immersive experiences for curious minds. Visitors can marvel at historic locomotives, space exploration artifacts, and cutting-edge innovations, as well as participate in workshops and educational programs suitable for all ages.",
            "name": "Powerhouse Museum"
          },
          {
            "coordinates": {
              "latitude": "-33.8766",
              "longitude": "151.2023"
            },
            "description": "The Chinese Garden of Friendship is a tranquil oasis inspired by the classic gardens of the Ming Dynasty, featuring serene waterfalls, lush flora, and traditional architecture. Visitors can stroll through the scenic landscape, participate in tea ceremonies, or learn about Chinese culture through guided tours and cultural events. The garden offers a peaceful retreat within the city.",
            "name": "Chinese Garden of Friendship"
          },
          {
            "coordinates": {
              "latitude": "-33.8782",
              "longitude": "151.2038"
            },
            "description": "Paddy's Markets is a bustling marketplace offering a diverse range of goods, including fresh produce, clothing, accessories, and souvenirs. Visitors can browse through the vibrant stalls, sample international cuisines at the food court, and haggle for bargains while experiencing the lively and multicultural atmosphere. The market provides a unique shopping experience in Sydney.",
            "name": "Paddy's Markets"
          }
        ],
        "Day 4": [
          {
            "coordinates": {
              "latitude": "-33.8431",
              "longitude": "151.2394"
            },
            "description": "Taronga Zoo is home to a diverse array of wildlife from around the world, providing opportunities to observe animals in stunning naturalistic habitats. Visitors can enjoy close-up encounters with koalas, giraffes, and elephants, as well as participate in zookeeper talks and animal feeding sessions. The zoo's conservation efforts and breathtaking harbor views make it a memorable destination for animal lovers.",
            "name": "Taronga Zoo"
          },
          {
            "coordinates": {
              "latitude": "-33.7984",
              "longitude": "151.2861"
            },
            "description": "Manly Beach is a laid-back coastal paradise, offering a relaxed atmosphere, perfect waves for surfing, and a scenic esplanade for walking or cycling. Visitors can savor fish and chips by the beach, take a dip in the ocean, or explore the boutiques and cafes along the bustling Corso. The ferry ride to Manly is also a delightful way to enjoy Sydney's harbor views.",
            "name": "Manly Beach"
          },
          {
            "coordinates": {
              "latitude": "-33.8483",
              "longitude": "151.0636"
            },
            "description": "Sydney Olympic Park is a dynamic hub for sports, entertainment, and nature, featuring venues from the 2000 Sydney Olympic Games alongside parklands and wetlands. Visitors can explore the park on bike or foot, discover interactive outdoor art installations, or attend events and concerts at iconic venues such as Qudos Bank Arena. The park offers diverse experiences for sports enthusiasts and nature lovers.",
            "name": "Sydney Olympic Park"
          },
          {
            "coordinates": {
              "latitude": "-33.7328",
              "longitude": "150.9399"
            },
            "description": "Featherdale Wildlife Park provides an immersive wildlife experience, allowing visitors to interact with iconic Australian animals such as kangaroos, wallabies, and koalas. The park offers feeding opportunities, up-close encounters, and informative keeper talks, providing insights into Australia's unique fauna. Wildlife enthusiasts can capture memorable moments with the adorable native creatures.",
            "name": "Featherdale Wildlife Park"
          }
        ]
      }
    }
    },
    {
      "city": "Paris",
      "id" : 5,
      "coordinates": {"latitude": "48.8566", "longitude": "2.3522"},
      "date": ["2024-05-15T13:14:17.176Z", "2024-05-18T13:14:17.176Z"],
      "trip" : {
      "trip_planner": {
        "Day 1": [
          {
            "coordinates": {
              "latitude": "48.8584",
              "longitude": "2.2945"
            },
            "description": "The iconic Eiffel Tower is a wrought-iron lattice tower on the Champ de Mars in Paris, France. It is named after the engineer Gustave Eiffel, whose company designed and built the tower. The Eiffel Tower is the most-visited paid monument in the world, so be prepared for crowds, but the view from the top is worth it.",
            "name": "Eiffel Tower"
          },
          {
            "coordinates": {
              "latitude": "48.8606",
              "longitude": "2.3376"
            },
            "description": "The Louvre Museum is the world's largest art museum and a historic monument in Paris, France. A central landmark of the city, it is located on the Right Bank of the Seine. Nearly 35,000 objects are on display, including the Mona Lisa and the Venus de Milo.",
            "name": "Louvre Museum"
          },
          {
            "coordinates": {
              "latitude": "48.8530",
              "longitude": "2.3499"
            },
            "description": "Notre-Dame Cathedral, a masterpiece of French Gothic architecture, is the most famous of the Gothic cathedrals of the Middle Ages and is distinguished for its size, antiquity, and architectural interest. The cathedral is located at the \u00cele de la Cit\u00e9.",
            "name": "Notre-Dame Cathedral"
          },
          {
            "coordinates": {
              "latitude": "48.8867",
              "longitude": "2.3431"
            },
            "description": "Montmartre is a large hill in Paris's 18th arrondissement. It is 130 m high and gives its name to the surrounding district, part of the Right Bank. Montmartre is primarily known for its artistic history, the white-domed Basilica of the Sacr\u00e9-C\u0153ur on its summit, and as a nightclub district.",
            "name": "Montmartre"
          }
        ],
        "Day 2": [
          {
            "coordinates": {
              "latitude": "48.8014",
              "longitude": "2.1300"
            },
            "description": "The Palace of Versailles is a royal ch\u00e2teau in Versailles in the \u00cele-de-France region of France. It is now open as a museum and is a very popular tourist attraction. The palace is a UNESCO World Heritage site, notable for the ceremonial Hall of Mirrors, the jewel-like Opera Hall, and the royal apartments.",
            "name": "Palace of Versailles"
          },
          {
            "coordinates": {
              "latitude": "48.8609",
              "longitude": "2.3262"
            },
            "description": "The Mus\u00e9e d'Orsay is a museum in Paris, France, on the Left Bank of the Seine. It is housed in the former Gare d'Orsay, a Beaux-Arts railway station. The museum holds mainly French art dating from 1848 to 1914, including paintings, sculptures, furniture, and photography.",
            "name": "Mus\u00e9e d'Orsay"
          },
          {
            "coordinates": {
              "latitude": "48.8556",
              "longitude": "2.3458"
            },
            "description": "The Sainte-Chapelle is a royal chapel in the Gothic style within the medieval Palais de la Cit\u00e9 in Paris, France. It is considered one of the highest achievements of the Rayonnant period of Gothic architecture. The Sainte-Chapelle is known for its beautiful stained glass windows.",
            "name": "Sainte-Chapelle"
          },
          {
            "coordinates": {
              "latitude": "48.8608",
              "longitude": "2.3376"
            },
            "description": "A Seine River cruise is a must-do activity in Paris. It offers fantastic views of the city's most iconic landmarks, such as the Eiffel Tower, Notre-Dame Cathedral, and Mus\u00e9e d'Orsay. You can enjoy a leisurely boat trip while taking in the breathtaking architecture of Paris.",
            "name": "Seine River Cruise"
          }
        ],
        "Day 3": [
          {
            "coordinates": {
              "latitude": "48.8462",
              "longitude": "2.3458"
            },
            "description": "The Panth\u00e9on is a building in the Latin Quarter in Paris. It was originally built as a church dedicated to St. Genevieve and to house the reliquary ch\u00e2sse containing her relics. It is an early example of neo-classicism, with a fa\u00e7ade modeled on the Pantheon in Rome.",
            "name": "The Panth\u00e9on"
          },
          {
            "coordinates": {
              "latitude": "48.8462",
              "longitude": "2.3372"
            },
            "description": "The Luxembourg Gardens, located in the 6th arrondissement of Paris, are one of the city's most famous and popular parks. The gardens are known for their lawns, tree-lined promenades, flowerbeds, the model sailboats on its circular basin, and for the picturesque Medici Fountain.",
            "name": "Luxembourg Gardens"
          },
          {
            "coordinates": {
              "latitude": "48.8606",
              "longitude": "2.3524"
            },
            "description": "The Centre Pompidou is a complex building in the Beaubourg area of the 4th arrondissement of Paris. It houses the public information library, a museum of modern art, and a center for music and acoustic research. It is named after Georges Pompidou, the President of France from 1969 to 1974.",
            "name": "Centre Pompidou"
          },
          {
            "coordinates": {
              "latitude": "48.8706",
              "longitude": "2.3703"
            },
            "description": "A cruise on Canal Saint-Martin is a unique way to explore a hidden gem of Paris. The tree-lined canals and iron footbridges give a completely different vibe as you cruise through the heart of the city. You'll pass through locks and tunnels, and get to see a different side of Paris.",
            "name": "Cruise on Canal Saint-Martin"
          }
        ]
      }
    }
    },
    {
      "city": "Rome",
      "id" : 6,
      "coordinates": {"latitude": "41.9028", "longitude": "12.4964"},
      "date": ["2024-05-15T13:14:17.176Z", "2024-05-19T13:14:17.176Z"],
      "trip" : {
      "trip_planner": {
        "Day 1": [
          {
            "coordinates": {
              "latitude": "41.890251",
              "longitude": "12.492373"
            },
            "description": "The Colosseum is an iconic symbol of Rome, known for its ancient history and impressive architecture. Visitors can explore the interior of this ancient amphitheater and learn about the gladiator battles and events that took place here. The Colosseum is a must-see attraction for anyone visiting Rome.",
            "name": "Colosseum"
          },
          {
            "coordinates": {
              "latitude": "41.892462",
              "longitude": "12.485325"
            },
            "description": "The Roman Forum is a fascinating archaeological site that offers insight into the ancient civilization of Rome. Visitors can wander through the ruins of temples, government buildings, and public squares, imagining the hustle and bustle of everyday life in ancient Rome.",
            "name": "Roman Forum"
          },
          {
            "coordinates": {
              "latitude": "41.900933",
              "longitude": "12.483322"
            },
            "description": "The Trevi Fountain is a stunning Baroque masterpiece and a popular spot for visitors to make a wish by tossing a coin into the water. This iconic monument is surrounded by beautiful architecture, making it a picturesque and romantic destination in Rome.",
            "name": "Trevi Fountain"
          },
          {
            "coordinates": {
              "latitude": "41.898615",
              "longitude": "12.476833"
            },
            "description": "The Pantheon is a remarkable ancient temple known for its impressive dome and well-preserved architecture. Visitors can marvel at the engineering marvels of the Pantheon and explore its grand interior, which still serves as a place of worship today.",
            "name": "Pantheon"
          }
        ],
        "Day 2": [
          {
            "coordinates": {
              "latitude": "41.902240",
              "longitude": "12.453000"
            },
            "description": "Vatican City is the world's smallest independent state and the spiritual and administrative center of the Roman Catholic Church. Visitors can explore St. Peter's Basilica, the Vatican Museums, and the Sistine Chapel, home to Michelangelo's famous ceiling frescoes.",
            "name": "Vatican City"
          },
          {
            "coordinates": {
              "latitude": "41.899183",
              "longitude": "12.473559"
            },
            "description": "Piazza Navona is a lively square adorned with beautiful fountains, Baroque architecture, and outdoor cafes. Visitors can soak in the vibrant atmosphere, admire the art and street performances, and indulge in authentic Italian cuisine at the surrounding restaurants.",
            "name": "Piazza Navona"
          },
          {
            "coordinates": {
              "latitude": "41.902984",
              "longitude": "12.466278"
            },
            "description": "Castel Sant'Angelo, also known as the Mausoleum of Hadrian, is a fortress and museum with a rich history. Visitors can explore its fascinating exhibits and enjoy panoramic views of Rome from the castle's terrace.",
            "name": "Castel Sant'Angelo"
          },
          {
            "coordinates": {
              "latitude": "41.888722",
              "longitude": "12.467774"
            },
            "description": "Trastevere is a charming and picturesque neighborhood known for its narrow cobblestone streets, colorful buildings, and authentic Roman atmosphere. Visitors can explore its artisan shops, quaint churches, and vibrant nightlife.",
            "name": "Trastevere"
          }
        ],
        "Day 3": [
          {
            "coordinates": {
              "latitude": "41.905882",
              "longitude": "12.482440"
            },
            "description": "The Spanish Steps is a famous staircase adorned with azaleas and a beautiful fountain, attracting visitors and locals alike. This iconic landmark offers a great spot to relax, people-watch, and enjoy the bustling atmosphere in the heart of Rome.",
            "name": "The Spanish Steps"
          },
          {
            "coordinates": {
              "latitude": "41.894802",
              "longitude": "12.482255"
            },
            "description": "Capitoline Hill is one of Rome's seven hills and is home to the Capitoline Museums, offering a rich collection of art and artifacts. Visitors can also admire the impressive equestrian statue of Marcus Aurelius and enjoy panoramic views of the city.",
            "name": "Capitoline Hill"
          },
          {
            "coordinates": {
              "latitude": "41.914794",
              "longitude": "12.485262"
            },
            "description": "The Borghese Gallery houses an extraordinary collection of art, including sculptures by Bernini and paintings by Caravaggio. Visitors can also stroll through the scenic Borghese Gardens, a peaceful green oasis within the bustling city.",
            "name": "Borghese Gallery and Gardens"
          },
          {
            "coordinates": {
              "latitude": "41.888489",
              "longitude": "12.487404"
            },
            "description": "Palatine Hill is the centermost of the Seven Hills of Rome and is one of the most ancient parts of the city. Visitors can explore the ruins of the palace of Emperor Domitian, offering breathtaking views of the Roman Forum and Circus Maximus.",
            "name": "Palatine Hill"
          }
        ],
        "Day 4": [
          {
            "coordinates": {
              "latitude": "41.8569",
              "longitude": "12.5156"
            },
            "description": "The Appian Way is one of the ancient Roman roads, known for its historical significance and picturesque countryside surroundings. Visitors can take a leisurely stroll or bike ride along this historic route, passing by ancient tombs, ruins, and lush landscapes.",
            "name": "Appian Way"
          },
          {
            "coordinates": {
              "latitude": "41.888992",
              "longitude": "12.48537"
            },
            "description": "Circus Maximus is an ancient Roman chariot racing stadium and mass entertainment venue. Visitors can explore the vast archaeological site, imagine the spectacles that once took place here, and enjoy the scenic views of the Palatine Hill and Roman Forum.",
            "name": "Circus Maximus"
          },
          {
            "coordinates": {
              "latitude": "41.8839",
              "longitude": "12.4847"
            },
            "description": "Aventine Hill is one of the seven hills of Rome, offering a peaceful and scenic escape from the bustling city. Visitors can explore its charming streets, enjoy panoramic views from the famous Keyhole of Rome, and visit the beautiful rose garden on the hill.",
            "name": "Aventine Hill"
          },
          {
            "coordinates": {
              "latitude": "41.8909",
              "longitude": "12.4687"
            },
            "description": "Janiculum Hill, also known as Gianicolo, is a hill offering sweeping views of Rome and is a popular spot for panoramic sunset vistas. Visitors can admire the stunning vistas, visit the monumental Garibaldi statue, and enjoy the peaceful atmosphere.",
            "name": "Janiculum Hill"
          }
        ]
      }
    }
    },
    {
      "city": "Beijing",
      "id" : 7,
      "coordinates": {"latitude": "39.9042", "longitude": "116.4074"},
      "date": ["2024-05-15T13:14:17.176Z", "2024-05-18T13:14:17.176Z"],
      "trip" : {
      "trip_planner": {
        "Day 1": [
          {
            "coordinates": {
              "latitude": "40.4319",
              "longitude": "116.5704"
            },
            "description": "The Great Wall of China is one of the most iconic landmarks in the world, stretching over 13,000 miles. It offers stunning views and a glimpse into ancient Chinese history. Visitors can hike along the wall and marvel at its architectural marvels. The coordinates will lead you to one of the most accessible and picturesque sections of the wall.",
            "name": "Great Wall of China"
          },
          {
            "coordinates": {
              "latitude": "39.9163",
              "longitude": "116.3971"
            },
            "description": "The Forbidden City is a UNESCO World Heritage site and was the Chinese imperial palace from the Ming dynasty to the end of the Qing dynasty. It is an architectural marvel and offers a fascinating insight into Chinese history and culture. The coordinates provided will guide you to the main entrance of this magnificent palace complex.",
            "name": "Forbidden City"
          },
          {
            "coordinates": {
              "latitude": "39.9042",
              "longitude": "116.3917"
            },
            "description": "Tiananmen Square is the fourth largest city square in the world and has great cultural significance in Chinese history. It is surrounded by important landmarks like the Monument to the People's Heroes and the Mausoleum of Mao Zedong. The coordinates provided will lead you to the heart of this historic and iconic square.",
            "name": "Tiananmen Square"
          },
          {
            "coordinates": {
              "latitude": "39.8827",
              "longitude": "116.4061"
            },
            "description": "The Temple of Heaven is a complex of religious buildings situated in the southeastern part of central Beijing. It is a masterpiece of architecture and landscape design, which simply portrays a masterpiece of architecture and landscape design. The coordinates provided will guide you to this cultural and architectural wonder.",
            "name": "Temple of Heaven"
          }
        ],
        "Day 2": [
          {
            "coordinates": {
              "latitude": "39.9994",
              "longitude": "116.2755"
            },
            "description": "The Summer Palace is a vast ensemble of lakes, gardens, and palaces in Beijing. It serves as a popular tourist destination and recreational park. The architecture, landscapes, and cultural elements make it a must-visit. The coordinates provided will lead you to the entrance of this enchanting retreat.",
            "name": "Summer Palace"
          },
          {
            "coordinates": {
              "latitude": "39.9329",
              "longitude": "116.3822"
            },
            "description": "Beihai Park is one of the oldest and most authentically preserved imperial gardens in China. It is a combination of natural beauty and profound historical significance, offering an enchanting experience for visitors. The coordinates provided will guide you to this serene and picturesque park.",
            "name": "Beihai Park"
          },
          {
            "coordinates": {
              "latitude": "39.9479",
              "longitude": "116.4183"
            },
            "description": "The Lama Temple, also known as the Yonghe Temple, is one of the largest and most important Tibetan Buddhist monasteries in the world. Its stunning architecture and spiritual ambiance make it a significant cultural and religious site. The coordinates provided will lead you to this magnificent temple complex.",
            "name": "Lama Temple"
          },
          {
            "coordinates": {
              "latitude": "39.9801",
              "longitude": "116.4964"
            },
            "description": "The 798 Art District is a thriving artistic community located in Beijing. It is home to a vast array of contemporary art galleries, design studios, and trendy cafes. The industrial architecture and vibrant art scene make it a must-visit for art enthusiasts. The coordinates provided will guide you to this creative hub.",
            "name": "798 Art District"
          }
        ],
        "Day 3": [
          {
            "coordinates": {
              "latitude": "39.9409",
              "longitude": "116.4017"
            },
            "description": "Peking Duck is a famous dish from Beijing, known for its thin, crispy skin and succulent meat. Enjoying an authentic Peking Duck dinner is a delightful culinary experience in Beijing. The coordinates provided will guide you to a renowned restaurant where you can savor this traditional delicacy.",
            "name": "Peking Duck Dinner"
          },
          {
            "coordinates": {
              "latitude": "39.9370",
              "longitude": "116.4025"
            },
            "description": "Exploring the traditional hutongs (narrow alleys) of Beijing offers a unique insight into the city's rich cultural heritage. A guided hutong tour provides an opportunity to immerse in the local way of life and witness old Beijing's timeless charm. The coordinates provided will lead you to the starting point of this cultural exploration.",
            "name": "Hutong Tour"
          },
          {
            "coordinates": {
              "latitude": "39.9045",
              "longitude": "116.3895"
            },
            "description": "The National Centre for the Performing Arts, also known as the 'The Egg,' is an architectural masterpiece and a prominent venue for the performing arts in Beijing. Its striking design and world-class performances make it a cultural gem worth visiting. The coordinates provided will guide you to this modern architectural marvel.",
            "name": "National Centre for the Performing Arts"
          },
          {
            "coordinates": {
              "latitude": "39.9926",
              "longitude": "116.3964"
            },
            "description": "The National Stadium, also known as the Bird's Nest, is an iconic Olympic venue. Its innovative design and historical significance make it a fascinating stop for sports enthusiasts and architecture aficionados. The coordinates provided will guide you to this impressive architectural landmark.",
            "name": "Bird's Nest Stadium"
          }
        ]
      }
    }
    },
    {
      "city": "Cairo",
      "id" : 8,
      "coordinates": {"latitude": "30.0444", "longitude": "31.2357"},
      "date": ["2024-05-15T13:14:17.176Z", "2024-05-20T13:14:17.176Z"],
      "trip" : {
      "trip_planner": {
        "Day 1": [
          {
            "coordinates": {
              "latitude": "29.9792\u00b0 N",
              "longitude": "31.1342\u00b0 E"
            },
            "description": "The Great Pyramids of Giza are one of the most iconic and impressive landmarks in the world. These ancient structures were built over 4,500 years ago as elaborate tombs for pharaohs. Standing at over 450 feet tall, the pyramids continue to captivate visitors with their massive scale and mysterious construction.",
            "name": "The Great Pyramids of Giza"
          },
          {
            "coordinates": {
              "latitude": "30.0478\u00b0 N",
              "longitude": "31.2336\u00b0 E"
            },
            "description": "The Egyptian Museum in Cairo is home to an extraordinary collection of ancient Egyptian antiquities. Visitors can marvel at the treasures of Tutankhamun, including his iconic gold mask, as well as countless other artifacts that offer a glimpse into the rich history of Egypt's pharaohs, mummies, and daily life.",
            "name": "The Egyptian Museum"
          },
          {
            "coordinates": {
              "latitude": "30.0467\u00b0 N",
              "longitude": "31.2622\u00b0 E"
            },
            "description": "Khan El Khalili is a vibrant and historic market in the heart of Cairo. This bustling bazaar offers a sensory feast with its myriad of shops selling everything from spices and textiles to jewelry and souvenirs. Visitors can wander through the labyrinthine alleys and soak up the lively atmosphere.",
            "name": "Khan El Khalili Bazaar"
          },
          {
            "coordinates": {
              "latitude": "30.0344\u00b0 N",
              "longitude": "31.2542\u00b0 E"
            },
            "description": "Al-Azhar Park is a beautiful green oasis in the midst of bustling Cairo. With stunning views of the city and the Citadel, the park provides a tranquil retreat for visitors. Its landscaped gardens, tranquil lakes, and shaded pathways offer a peaceful escape from the urban chaos.",
            "name": "Al-Azhar Park"
          }
        ],
        "Day 2": [
          {
            "coordinates": {
              "latitude": "30.0293\u00b0 N",
              "longitude": "31.2613\u00b0 E"
            },
            "description": "The Citadel of Salah ad-Din is a medieval Islamic fortification that offers panoramic views of Cairo. This historic site houses several mosques, museums, and ancient structures, including the impressive Alabaster Mosque. Visitors can explore the citadel's sprawling grounds and learn about its storied past.",
            "name": "Citadel of Salah ad-Din"
          },
          {
            "coordinates": {
              "latitude": "30.0107\u00b0 N",
              "longitude": "31.2289\u00b0 E"
            },
            "description": "Coptic Cairo is a fascinating district that preserves the heart of Egypt's Christian history. Visitors can wander through narrow streets lined with ancient churches, including the Hanging Church and the Church of St. Sergius. The area also features a wealth of antique shops and atmospheric cafes.",
            "name": "Coptic Cairo"
          },
          {
            "coordinates": {
              "latitude": "30.0275\u00b0 N",
              "longitude": "31.2596\u00b0 E"
            },
            "description": "The Mosque of Muhammad Ali, also known as the Alabaster Mosque, is a stunning architectural masterpiece within the Citadel of Cairo. Its soaring domes and minarets dominate the city's skyline, and the interior is adorned with intricate marble, ornate chandeliers, and beautiful mosaics.",
            "name": "Mosque of Muhammad Ali"
          },
          {
            "coordinates": {
              "latitude": "30.0044\u00b0 N",
              "longitude": "31.2317\u00b0 E"
            },
            "description": "The Nilometer is a historic structure located on an island in the Nile River. This ancient device was used to measure the water levels of the river, which were crucial for agricultural planning and flood predictions in ancient Egypt. Visitors can marvel at the ingenuity of this ancient hydraulic technology.",
            "name": "The Nilometer"
          }
        ],
        "Day 3": [
          {
            "coordinates": {
              "latitude": "30.0409\u00b0 N",
              "longitude": "31.2631\u00b0 E"
            },
            "description": "Islamic Cairo is a captivating district that boasts an incredible array of historic mosques, madrasas, and monuments. Visitors can explore the narrow alleyways and discover architectural treasures such as the Sultan Hassan Mosque, the Al-Azhar Mosque, and the medieval gate of Bab Zuweila.",
            "name": "Islamic Cairo"
          },
          {
            "coordinates": {
              "latitude": "30.0459\u00b0 N",
              "longitude": "31.2626\u00b0 E"
            },
            "description": "El-Moez Street is a vibrant thoroughfare in Islamic Cairo, lined with some of the best preserved Islamic medieval architecture in the world. Visitors can admire the ornate facades of historic buildings, stunning mosques, and ancient gateways that offer a window into Cairo's grand past.",
            "name": "El-Moez Street"
          },
          {
            "coordinates": {
              "latitude": "30.0458\u00b0 N",
              "longitude": "31.2623\u00b0 E"
            },
            "description": "The Al Azhar Mosque is one of the most important Islamic institutions in the world and a major landmark in Cairo. The mosque's stunning architecture, tranquil courtyards, and rich history make it a must-visit for those interested in Islamic art and culture.",
            "name": "Al Azhar Mosque"
          },
          {
            "coordinates": {
              "latitude": "30.0416\u00b0 N",
              "longitude": "31.2641\u00b0 E"
            },
            "description": "The Museum of Islamic Art in Cairo houses a magnificent collection of Islamic artifacts, including textiles, ceramics, and exquisite metalwork. Visitors can explore the museum's galleries to gain insight into the artistic and cultural achievements of Islamic civilizations.",
            "name": "Museum of Islamic Art"
          }
        ],
        "Day 4": [
          {
            "coordinates": {
              "latitude": "30.0337\u00b0 N",
              "longitude": "31.2618\u00b0 E"
            },
            "description": "The Sultan Hassan Mosque is a monumental Mamluk-era mosque and madrasa complex, renowned for its grand architecture and intricate decorative details. Visitors can marvel at the stunning interiors, the soaring minarets, and the peaceful courtyard of this historic religious site.",
            "name": "Sultan Hassan Mosque"
          },
          {
            "coordinates": {
              "latitude": "30.0456\u00b0 N",
              "longitude": "31.2336\u00b0 E"
            },
            "description": "Kafficho Coffee is a popular local cafe in Cairo, known for its aromatic coffee, delicious pastries, and friendly ambiance. Visitors can unwind in this cozy spot, savoring the rich flavors of Egyptian coffee and indulging in sweet treats while soaking up the laid-back atmosphere.",
            "name": "Kafficho Coffee"
          },
          {
            "coordinates": {
              "latitude": "30.0477\u00b0 N",
              "longitude": "31.2627\u00b0 E"
            },
            "description": "The Gayer-Anderson Museum is housed in two historic residences, offering an enchanting journey through traditional Egyptian architecture and decorative arts. Visitors can explore the beautifully preserved rooms, courtyards, and collections of antiquities, providing insight into Egypt's cultural heritage.",
            "name": "Gayer-Anderson Museum"
          },
          {
            "coordinates": {
              "latitude": "30.0323\u00b0 N",
              "longitude": "31.2611\u00b0 E"
            },
            "description": "The Sabil-Kuttab of Abd El-Rahman Katkhuda is a striking historical complex that once served as a public fountain and Quranic school. Visitors can admire its elegant architecture and ornate decorations, offering a glimpse into the cultural and architectural legacy of old Cairo.",
            "name": "Sabil-Kuttab of Abd El-Rahman Katkhuda"
          }
        ],
        "Day 5": [
          {
            "coordinates": {
              "latitude": "30.0459\u00b0 N",
              "longitude": "31.2246\u00b0 E"
            },
            "description": "The Cairo Tower is a prominent landmark that offers breathtaking panoramic views of the sprawling city and the winding Nile River. Visitors can ascend to the observation deck to enjoy an unrivaled 360-degree perspective, making it an ideal spot for capturing stunning photos of Cairo's skyline.",
            "name": "Cairo Tower"
          },
          {
            "coordinates": {
              "latitude": "30.0403\u00b0 N",
              "longitude": "31.2266\u00b0 E"
            },
            "description": "The Manial Palace Museum is an exquisite royal complex that showcases the opulent lifestyle of Egypt's royal family. Visitors can explore the lavishly decorated halls, lush gardens, and impressive art collections, gaining insight into Egypt's rich royal history and cultural heritage.",
            "name": "Manial Palace Museum"
          },
          {
            "coordinates": {
              "latitude": "30.0468\u00b0 N",
              "longitude": "31.2622\u00b0 E"
            },
            "description": "Fishawi's Cafe is a legendary coffeehouse in Khan El Khalili, offering a timeless setting to enjoy traditional Egyptian coffee, aromatic shisha, and vibrant conversations. With its historic charm and bustling atmosphere, the cafe provides an authentic taste of Cairo's social and cultural traditions.",
            "name": "Fishawi's Cafe"
          },
          {
            "coordinates": {
              "latitude": "30.0296\u00b0 N",
              "longitude": "31.2077\u00b0 E"
            },
            "description": "Giza Zoo is a sprawling green oasis that houses a diverse collection of animal species, including exotic mammals, birds, and reptiles. Visitors can stroll through the lush gardens, enjoy family-friendly attractions, and encounter fascinating wildlife from around the globe.",
            "name": "Giza Zoo"
          }
        ]
      }
    }
    },
    {
      "city": "Moscow",
      "id" : 9,
      "coordinates": {"latitude": "55.7558", "longitude": "37.6173"},
      "date": ["2024-05-15T13:14:17.176Z", "2024-05-18T13:14:17.176Z"],
      "trip" : {
      "trip_planner": {
        "Day 1": [
          {
            "coordinates": {
              "latitude": "55.7539",
              "longitude": "37.6208"
            },
            "description": "The iconic Red Square is a must-visit in Moscow. It is home to the famous Kremlin, historic buildings, and the beautiful St. Basil's Cathedral. Take a leisurely stroll around this UNESCO World Heritage Site and soak in the rich history of Russia.",
            "name": "Red Square"
          },
          {
            "coordinates": {
              "latitude": "55.7602",
              "longitude": "37.6183"
            },
            "description": "Experience the world-renowned Bolshoi Theatre, a symbol of Russian culture and home to the Bolshoi Ballet. Take a guided tour to marvel at its opulent interiors and learn about its legendary performances.",
            "name": "Bolshoi Theatre"
          },
          {
            "coordinates": {
              "latitude": "55.7318",
              "longitude": "37.6095"
            },
            "description": "Relax in the sprawling Gorky Park, where you can enjoy a variety of activities such as cycling, picnicking, or simply strolling amidst lush greenery. The park also features art installations and cultural events.",
            "name": "Gorky Park"
          },
          {
            "coordinates": {
              "latitude": "55.7513",
              "longitude": "37.5944"
            },
            "description": "Wander along the historic Arbat Street, filled with charming cafes, street artists, and souvenir shops. Immerse yourself in the lively atmosphere and discover a wide range of Russian arts and crafts.",
            "name": "Arbat Street"
          }
        ],
        "Day 2": [
          {
            "coordinates": {
              "latitude": "55.7520",
              "longitude": "37.6175"
            },
            "description": "Explore the magnificent Moscow Kremlin, a symbol of Russian power and grandeur. Visit its cathedrals, palaces, and museums, and don't miss the chance to see the famous Tsar Bell and Tsar Cannon.",
            "name": "Kremlin"
          },
          {
            "coordinates": {
              "latitude": "55.7028",
              "longitude": "37.5325"
            },
            "description": "Head to Sparrow Hills for breathtaking panoramic views of Moscow. Marvel at the city skyline and the Moscow River from the observation platform, and take a leisurely stroll in the surrounding park.",
            "name": "Sparrow Hills"
          },
          {
            "coordinates": {
              "latitude": "55.8313",
              "longitude": "37.6322"
            },
            "description": "Discover the expansive VDNKh park, featuring Soviet-era architecture, fountains, and pavilions. Explore its museums, exhibitions, and monuments, and savor the nostalgic charm of the Soviet era.",
            "name": "VDNKh Park"
          },
          {
            "coordinates": {
              "latitude": "55.7558",
              "longitude": "37.6175"
            },
            "description": "Take a unique tour of the Moscow Metro, known for its stunning architecture, mosaics, and sculptures. Visit stations like Komsomolskaya and Mayakovskaya to admire the underground art masterpieces.",
            "name": "Moscow Metro"
          }
        ],
        "Day 3": [
          {
            "coordinates": {
              "latitude": "55.7375",
              "longitude": "37.5949"
            },
            "description": "Immerse yourself in art and history at the Pushkin Museum, home to an impressive collection of European and ancient art. Admire works by renowned artists, including Rembrandt, Van Gogh, and Picasso.",
            "name": "Pushkin Museum"
          },
          {
            "coordinates": {
              "latitude": "55.7925",
              "longitude": "37.7507"
            },
            "description": "Explore the vibrant Izmailovsky Market, known for its colorful stalls selling traditional Russian crafts, nesting dolls, and souvenirs. Dive into the lively atmosphere and find unique treasures to take home.",
            "name": "Izmailovsky Market"
          },
          {
            "coordinates": {
              "latitude": "55.8240",
              "longitude": "37.6384"
            },
            "description": "Experience the grandeur of VDNKh All-Russian Exhibition Center, featuring impressive Soviet architecture, historical pavilions, and a wide range of exhibitions. Discover Russian cultural heritage and innovation.",
            "name": "VDNKh All-Russian Exhibition Center"
          },
          {
            "coordinates": {
              "latitude": "55.7251",
              "longitude": "37.5585"
            },
            "description": "Visit the UNESCO-listed Novodevichy Convent, an architectural gem with a rich history. Explore its churches, cemetery, and serene gardens, and learn about the influential women who shaped Russian history.",
            "name": "Novodevichy Convent"
          }
        ]
      }
    }
    },
    {
      "city": "Rio de Janeiro",
      "id" : 10,
      "coordinates": {"latitude": "-22.9068", "longitude": "-43.1729"},
      "date": ["2024-05-15T13:14:17.176Z", "2024-05-18T13:14:17.176Z"],
      "trip" : {
      "trip_planner": {
        "Day 1": [
          {
            "coordinates": {
              "latitude": "-22.951916",
              "longitude": "-43.210487"
            },
            "description": "The iconic Christ the Redeemer statue is a must-visit attraction in Rio de Janeiro. Standing tall at the peak of the Corcovado mountain, the statue offers breathtaking panoramic views of the city and the surrounding landscape. Visitors can reach the statue by a scenic train ride through the Tijuca Forest or by hiking the trails. At the base, there are informative exhibits about the history and construction of the statue.",
            "name": "Christ the Redeemer"
          },
          {
            "coordinates": {
              "latitude": "-22.948374",
              "longitude": "-43.154778"
            },
            "description": "Sugarloaf Mountain, or P\u00e3o de A\u00e7\u00facar, is another must-see landmark in Rio de Janeiro. A cable car ride to the top provides stunning views of the city, beaches, and Guanabara Bay. At the summit, there are lookout points, souvenir shops, and restaurants offering traditional Brazilian cuisine with a view. Visitors can also enjoy hiking trails around the mountain.",
            "name": "Sugarloaf Mountain"
          },
          {
            "coordinates": {
              "latitude": "-22.971783",
              "longitude": "-43.185769"
            },
            "description": "The world-famous Copacabana Beach is an ideal spot to relax, sunbathe, and enjoy the vibrant atmosphere of Rio de Janeiro. Stretching over 4 kilometers, the beach offers soft white sand, clear waters, beachside kiosks serving refreshing drinks, and beach volleyball courts. Visitors can also find lively bars, restaurants, and shops along the promenade.",
            "name": "Copacabana Beach"
          },
          {
            "coordinates": {
              "latitude": "-22.913313",
              "longitude": "-43.179830"
            },
            "description": "The Lapa Arches, or Arcos da Lapa, are a historic architectural landmark in Rio de Janeiro. The aqueduct, originally built in the 18th century, now serves as a bridge for the Santa Teresa tram. The surrounding area is known for its vibrant nightlife, with numerous samba clubs, bars, and live music venues. Visitors can enjoy the lively atmosphere and experience the local culture.",
            "name": "Lapa Arches"
          }
        ],
        "Day 2": [
          {
            "coordinates": {
              "latitude": "-22.947392",
              "longitude": "-43.285169"
            },
            "description": "Explore the lush Tijuca National Park, a tropical rainforest in the heart of Rio de Janeiro. The park is home to diverse flora and fauna, picturesque waterfalls, and hiking trails leading to scenic viewpoints. Visitors can admire the natural beauty, observe wildlife such as monkeys and exotic birds, and visit the iconic Mayrink Chapel nestled within the forest.",
            "name": "Tijuca National Park"
          },
          {
            "coordinates": {
              "latitude": "-22.912825",
              "longitude": "-43.230247"
            },
            "description": "Sports enthusiasts can't miss a visit to the legendary Maracan\u00e3 Stadium, one of the largest football stadiums in the world. Take a guided tour to explore the stadium's history, view the football museum, and walk onto the pitch. The stadium has hosted historic football matches and major events, making it a significant part of Rio's sporting culture.",
            "name": "Maracan\u00e3 Stadium"
          },
          {
            "coordinates": {
              "latitude": "-22.965572",
              "longitude": "-43.225301"
            },
            "description": "Escape to the serene Botanical Garden, a peaceful oasis in the city. Stroll through the immaculately maintained gardens featuring a diverse collection of tropical plants, orchids, and giant water lilies. Visitors can also explore the glasshouse, pathways adorned with palms, and a small museum showcasing botanical artifacts and rare specimens.",
            "name": "Botanical Garden"
          },
          {
            "coordinates": {
              "latitude": "-22.976336",
              "longitude": "-43.211716"
            },
            "description": "Take a relaxing walk or bike ride around the scenic Lagoa Rodrigo de Freitas, a picturesque lagoon surrounded by verdant hills. The area offers stunning views, recreational activities, and waterside kiosks serving delicious local snacks and drinks. Visitors can rent pedal boats, paddleboards, or simply enjoy the beauty of this urban lagoon.",
            "name": "Lagoa Rodrigo de Freitas"
          }
        ],
        "Day 3": [
          {
            "coordinates": {
              "latitude": "-22.986614",
              "longitude": "-43.205175"
            },
            "description": "Spend a day at Ipanema Beach, known for its laid-back vibe, golden sand, and stunning sunsets. The beach is a popular spot for surfing, swimming, and beach sports. Visitors can relax at beachside cafes, shop at trendy boutiques, and witness the vibrant energy of Rio's beach culture. Don't miss the iconic 'Girl from Ipanema' statue on the promenade.",
            "name": "Ipanema Beach"
          },
          {
            "coordinates": {
              "latitude": "-22.985347",
              "longitude": "-43.232140"
            },
            "description": "Explore the botanical wealth and landscape design at the Cristiano Burle Marx Park. This modernist park, designed by the renowned Brazilian landscape architect Roberto Burle Marx, features a diverse collection of tropical plants, water gardens, and artistic pavements. Visitors can appreciate the harmonious blend of art and nature in this unique urban park.",
            "name": "Cristiano Burle Marx Park"
          },
          {
            "coordinates": {
              "latitude": "-22.895695",
              "longitude": "-43.180537"
            },
            "description": "Engage in thought-provoking exhibits and futuristic concepts at the Museum of Tomorrow. This innovative science museum explores the challenges and opportunities of the future, focusing on sustainability, climate change, and technology. Visitors can enjoy interactive displays, immersive experiences, and gain insight into the impact of human actions on the planet.",
            "name": "Museum of Tomorrow"
          },
          {
            "coordinates": {
              "latitude": "-22.989269",
              "longitude": "-43.285005"
            },
            "description": "Embark on a thrilling adventure to Pedra Bonita, a mountain offering exceptional views and paragliding opportunities. The hike to the summit rewards visitors with panoramic vistas of Tijuca Forest, pristine beaches, and the cityscape. For the more adventurous, tandem paragliding flights with experienced pilots provide an exhilarating way to experience Rio from the sky.",
            "name": "Pedra Bonita"
          }
        ]
      }
    }
    },
    {
      "city": "Bangkok",
      "id" : 11,
      "coordinates": {"latitude": "13.7563", "longitude": "100.5018"},
      "date": ["2024-05-15T13:14:17.176Z", "2024-05-18T13:14:17.176Z"],
      "trip" : {
      "trip_planner": {
        "Day 1": [
          {
            "coordinates": {
              "latitude": "13.7510",
              "longitude": "100.4924"
            },
            "description": "Explore the stunning Grand Palace, a historic landmark in Bangkok. Admire the intricate architectural details and learn about the rich history of the Thai royal family. Don't miss the Emerald Buddha, a sacred statue carved from a single block of jade. Afterward, stroll through the nearby Wat Pho, home to a massive reclining Buddha.",
            "name": "Grand Palace"
          },
          {
            "coordinates": {
              "latitude": "13.7990",
              "longitude": "100.5507"
            },
            "description": "Spend the afternoon at the vibrant Chatuchak Weekend Market, one of the world's largest weekend markets. Browse through a myriad of stalls offering local handicrafts, clothing, antiques, and delicious street food. Get lost in the bustling alleys filled with unique finds and colorful items.",
            "name": "Chatuchak Weekend Market"
          },
          {
            "coordinates": {
              "latitude": "13.7437",
              "longitude": "100.4887"
            },
            "description": "Watch the sunset from Wat Arun, also known as the Temple of Dawn. Marvel at the intricate design of this riverside temple adorned with porcelain and seashells. Climb to the top for panoramic views of the Chao Phraya River and the city skyline as the twilight casts a magical glow over Bangkok.",
            "name": "Wat Arun"
          },
          {
            "coordinates": {
              "latitude": "13.7589",
              "longitude": "100.4977"
            },
            "description": "Experience the lively atmosphere of Khao San Road, a bustling hub of nightlife, street food, and souvenir shopping. Sample local delicacies, shop for unique gifts, and soak in the energetic vibe of this iconic backpacker district. Enjoy live music and mingle with travelers from around the world.",
            "name": "Khao San Road"
          }
        ],
        "Day 2": [
          {
            "coordinates": {
              "latitude": "13.7209",
              "longitude": "100.5143"
            },
            "description": "Embark on a scenic Chao Phraya River cruise to admire Bangkok's landmarks from the water. Glide past the Grand Palace, Wat Arun, and elegant riverside hotels while savoring delicious Thai cuisine on board. Witness the contrast between historic temples and modern skyscrapers along the riverbanks.",
            "name": "Chao Phraya River Cruise"
          },
          {
            "coordinates": {
              "latitude": "13.7443",
              "longitude": "100.5222"
            },
            "description": "Visit the Jim Thompson House, a museum dedicated to the American entrepreneur who revived the Thai silk industry. Explore the traditional Thai teak wood houses surrounded by lush gardens. Admire the impressive collection of Southeast Asian art and learn about Thompson's fascinating life.",
            "name": "Jim Thompson House"
          },
          {
            "coordinates": {
              "latitude": "13.7469",
              "longitude": "100.5349"
            },
            "description": "Indulge in retail therapy at Siam Paragon, one of Bangkok's premier shopping malls. Discover luxury boutiques, international brand stores, and a gourmet food market offering a wide array of culinary delights. Treat yourself to a movie at the state-of-the-art cinema or enjoy a sumptuous meal at one of the many restaurants.",
            "name": "Siam Paragon"
          },
          {
            "coordinates": {
              "latitude": "13.7296",
              "longitude": "100.5436"
            },
            "description": "Relax in the tranquil oasis of Lumpini Park, a green space in the heart of Bangkok. Take a leisurely stroll around the serene lake, rent a paddleboat, or join a group of locals practicing tai chi. Escape the urban bustle and unwind amidst lush vegetation and peaceful surroundings.",
            "name": "Lumpini Park"
          }
        ],
        "Day 3": [
          {
            "coordinates": {
              "latitude": "14.3692",
              "longitude": "100.5877"
            },
            "description": "Embark on a day trip to the ancient city of Ayutthaya, a UNESCO World Heritage site. Explore the impressive ruins of temples and palaces that reflect the glory of the old kingdom. Marvel at the iconic Buddha head entwined in the roots of a tree at Wat Mahathat and cruise along the tranquil Chao Phraya River.",
            "name": "Ayutthaya Day Trip"
          },
          {
            "coordinates": {
              "latitude": "13.7246",
              "longitude": "100.4930"
            },
            "description": "Delight your taste buds with a street food adventure in Bangkok's vibrant neighborhoods. Savor local delicacies such as spicy tom yum soup, flavorful pad Thai, and refreshing mango sticky rice. Wander through bustling food markets and experience the diverse flavors and aromas of Thai cuisine.",
            "name": "Street Food Adventure"
          },
          {
            "coordinates": {
              "latitude": "13.7465",
              "longitude": "100.5321"
            },
            "description": "Immerse yourself in the contemporary art scene at the Bangkok Art and Culture Center. Explore thought-provoking exhibitions, galleries, and performance spaces showcasing local and international artists. Gain insight into the city's cultural landscape and witness the vibrant creativity of Bangkok's art community.",
            "name": "Bangkok Art and Culture Center"
          },
          {
            "coordinates": {
              "latitude": "13.7306",
              "longitude": "100.5679"
            },
            "description": "End your trip with a mesmerizing view of Bangkok's glittering skyline from a rooftop bar. Sip on signature cocktails while watching the city come alive at night. Marvel at the panoramic vistas of illuminated skyscrapers and the Chao Phraya River, creating a captivating backdrop for a memorable evening.",
            "name": "Bangkok Rooftop Bar"
          }
        ]
      }
    }
    }
]